{
  "type": "FeatureCollection",
  "features": [
    {
      "type": "Feature",
      "properties": {
        "id": "3518",
        "name_formal": "Hayward City Council"
      },
      "geometry": {
        "type": "Point",
        "coordinates": [
          -122.104586512407,
          37.6272861375769
        ]
      }
    },
    {
      "type": "Feature",
      "properties": {
        "id": "4741",
        "name_formal": "College Station City Council"
      },
      "geometry": {
        "type": "Point",
        "coordinates": [
          -96.2959455101368,
          30.5852748905981
        ]
      }
    },
    {
      "type": "Feature",
      "properties": {
        "id": "4661",
        "name_formal": "Corona City Council"
      },
      "geometry": {
        "type": "Point",
        "coordinates": [
          -117.617414069225,
          33.862804816188
        ]
      }
    },
    {
      "type": "Feature",
      "properties": {
        "id": "4560",
        "name_formal": "Reno City Council"
      },
      "geometry": {
        "type": "Point",
        "coordinates": [
          -119.848594809594,
          39.5486485586587
        ]
      }
    },
    {
      "type": "Feature",
      "properties": {
        "id": "3788",
        "name_formal": "Port St. Lucie City Council"
      },
      "geometry": {
        "type": "Point",
        "coordinates": [
          -80.3882095831272,
          27.2795484729314
        ]
      }
    },
    {
      "type": "Feature",
      "properties": {
        "id": "3848",
        "name_formal": "Chula Vista City Council"
      },
      "geometry": {
        "type": "Point",
        "coordinates": [
          -117.014126665555,
          32.6277564727272
        ]
      }
    },
    {
      "type": "Feature",
      "properties": {
        "id": "4766",
        "name_formal": "Anaheim City Council"
      },
      "geometry": {
        "type": "Point",
        "coordinates": [
          -117.988220079604,
          33.8311643692299
        ]
      }
    },
    {
      "type": "Feature",
      "properties": {
        "id": "4805",
        "name_formal": "Costa Mesa City Council"
      },
      "geometry": {
        "type": "Point",
        "coordinates": [
          -117.913488224618,
          33.6666821071578
        ]
      }
    },
    {
      "type": "Feature",
      "properties": {
        "id": "2628",
        "name_formal": "Providence City Council"
      },
      "geometry": {
        "type": "Point",
        "coordinates": [
          -71.4526791528951,
          41.8386274193241
        ]
      }
    },
    {
      "type": "Feature",
      "properties": {
        "id": "4803",
        "name_formal": "Odessa City Council"
      },
      "geometry": {
        "type": "Point",
        "coordinates": [
          -102.341141731675,
          31.883798092401
        ]
      }
    },
    {
      "type": "Feature",
      "properties": {
        "id": "4802",
        "name_formal": "Menlo Park City Council"
      },
      "geometry": {
        "type": "Point",
        "coordinates": [
          -122.148359968771,
          37.4806451844827
        ]
      }
    },
    {
      "type": "Feature",
      "properties": {
        "id": "4515",
        "name_formal": "El Cajon City Council"
      },
      "geometry": {
        "type": "Point",
        "coordinates": [
          -116.960398950138,
          32.801670519194
        ]
      }
    },
    {
      "type": "Feature",
      "properties": {
        "id": "4646",
        "name_formal": "Peoria City Council"
      },
      "geometry": {
        "type": "Point",
        "coordinates": [
          -112.298964698333,
          33.7844566313013
        ]
      }
    },
    {
      "type": "Feature",
      "properties": {
        "id": "3803",
        "name_formal": "Fontana City Council"
      },
      "geometry": {
        "type": "Point",
        "coordinates": [
          -117.459853745529,
          34.0967694372728
        ]
      }
    },
    {
      "type": "Feature",
      "properties": {
        "id": "4761",
        "name_formal": "Dallas City Council"
      },
      "geometry": {
        "type": "Point",
        "coordinates": [
          -96.9195108371911,
          32.6926190762237
        ]
      }
    },
    {
      "type": "Feature",
      "properties": {
        "id": "4388",
        "name_formal": "Rochester City Council"
      },
      "geometry": {
        "type": "Point",
        "coordinates": [
          -92.4777519573645,
          44.015178508765
        ]
      }
    },
    {
      "type": "Feature",
      "properties": {
        "id": "4798",
        "name_formal": "Shreveport City Council"
      },
      "geometry": {
        "type": "Point",
        "coordinates": [
          -93.8221730846191,
          32.5256341812045
        ]
      }
    },
    {
      "type": "Feature",
      "properties": {
        "id": "4544",
        "name_formal": "Salem City Council"
      },
      "geometry": {
        "type": "Point",
        "coordinates": [
          -123.02449476207,
          44.9232105772126
        ]
      }
    },
    {
      "type": "Feature",
      "properties": {
        "id": "4668",
        "name_formal": "Roseville City Council"
      },
      "geometry": {
        "type": "Point",
        "coordinates": [
          -121.318025797915,
          38.7691095083269
        ]
      }
    },
    {
      "type": "Feature",
      "properties": {
        "id": "4801",
        "name_formal": "Fullerton City Council"
      },
      "geometry": {
        "type": "Point",
        "coordinates": [
          -117.927908116524,
          33.8840632404652
        ]
      }
    },
    {
      "type": "Feature",
      "properties": {
        "id": "3793",
        "name_formal": "Orange City Council"
      },
      "geometry": {
        "type": "Point",
        "coordinates": [
          -117.82182138118,
          33.8038228083091
        ]
      }
    },
    {
      "type": "Feature",
      "properties": {
        "id": "3371",
        "name_formal": "Irvine City Council"
      },
      "geometry": {
        "type": "Point",
        "coordinates": [
          -117.773780391653,
          33.6771863800576
        ]
      }
    },
    {
      "type": "Feature",
      "properties": {
        "id": "4253",
        "name_formal": "Stockton City Council"
      },
      "geometry": {
        "type": "Point",
        "coordinates": [
          -121.354358080892,
          38.0407905145813
        ]
      }
    },
    {
      "type": "Feature",
      "properties": {
        "id": "4269",
        "name_formal": "Santa Clara City Council"
      },
      "geometry": {
        "type": "Point",
        "coordinates": [
          -121.967925959435,
          37.3646326515061
        ]
      }
    },
    {
      "type": "Feature",
      "properties": {
        "id": "4730",
        "name_formal": "Vallejo City Council"
      },
      "geometry": {
        "type": "Point",
        "coordinates": [
          -122.264315792627,
          38.1079447998049
        ]
      }
    },
    {
      "type": "Feature",
      "properties": {
        "id": "1342",
        "name_formal": "Portland City Council"
      },
      "geometry": {
        "type": "Point",
        "coordinates": [
          -122.650414537674,
          45.5370913129351
        ]
      }
    },
    {
      "type": "Feature",
      "properties": {
        "id": "3878",
        "name_formal": "Palmdale City Council"
      },
      "geometry": {
        "type": "Point",
        "coordinates": [
          -118.105772348444,
          34.5944899951187
        ]
      }
    },
    {
      "type": "Feature",
      "properties": {
        "id": "3415",
        "name_formal": "Thousand Oaks City Council"
      },
      "geometry": {
        "type": "Point",
        "coordinates": [
          -118.875572628662,
          34.1913575515015
        ]
      }
    },
    {
      "type": "Feature",
      "properties": {
        "id": "2932",
        "name_formal": "St. Louis County Executive"
      },
      "geometry": {
        "type": "Point",
        "coordinates": [
          -90.4436015703586,
          38.640398014408
        ]
      }
    },
    {
      "type": "Feature",
      "properties": {
        "id": "3865",
        "name_formal": "Pomona City Council"
      },
      "geometry": {
        "type": "Point",
        "coordinates": [
          -117.762548888995,
          34.0585091128175
        ]
      }
    },
    {
      "type": "Feature",
      "properties": {
        "id": "4562",
        "name_formal": "Winston-Salem City Council"
      },
      "geometry": {
        "type": "Point",
        "coordinates": [
          -80.3147873753106,
          36.1370743416273
        ]
      }
    },
    {
      "type": "Feature",
      "properties": {
        "id": "4795",
        "name_formal": "Oxnard City Council"
      },
      "geometry": {
        "type": "Point",
        "coordinates": [
          -119.181851702541,
          34.1958228507065
        ]
      }
    },
    {
      "type": "Feature",
      "properties": {
        "id": "2823",
        "name_formal": "Oakland City Council"
      },
      "geometry": {
        "type": "Point",
        "coordinates": [
          -122.224829312547,
          37.7699407417055
        ]
      }
    },
    {
      "type": "Feature",
      "properties": {
        "id": "4780",
        "name_formal": "Davie Town Council"
      },
      "geometry": {
        "type": "Point",
        "coordinates": [
          -80.3343262954618,
          26.0803187036171
        ]
      }
    },
    {
      "type": "Feature",
      "properties": {
        "id": "3482",
        "name_formal": "Richmond City Council"
      },
      "geometry": {
        "type": "Point",
        "coordinates": [
          -122.360264848587,
          37.9517718997158
        ]
      }
    },
    {
      "type": "Feature",
      "properties": {
        "id": "3017",
        "name_formal": "Lake County Board of Commissioners"
      },
      "geometry": {
        "type": "Point",
        "coordinates": [
          -87.3934818521412,
          41.3360509750485
        ]
      }
    },
    {
      "type": "Feature",
      "properties": {
        "id": "2819",
        "name_formal": "Miami-Dade Board of County Commissioners"
      },
      "geometry": {
        "type": "Point",
        "coordinates": [
          -80.6066948759301,
          25.862646526626
        ]
      }
    },
    {
      "type": "Feature",
      "properties": {
        "id": "2656",
        "name_formal": "Virginia Beach Mayor"
      },
      "geometry": {
        "type": "Point",
        "coordinates": [
          -76.0373346231656,
          36.7379047231525
        ]
      }
    },
    {
      "type": "Feature",
      "properties": {
        "id": "3095",
        "name_formal": "Scottsdale City Council"
      },
      "geometry": {
        "type": "Point",
        "coordinates": [
          -111.865029242069,
          33.6872302454407
        ]
      }
    },
    {
      "type": "Feature",
      "properties": {
        "id": "3370",
        "name_formal": "Glendale City Council"
      },
      "geometry": {
        "type": "Point",
        "coordinates": [
          -112.296868459918,
          33.5341510513413
        ]
      }
    },
    {
      "type": "Feature",
      "properties": {
        "id": "3808",
        "name_formal": "Vista City Council"
      },
      "geometry": {
        "type": "Point",
        "coordinates": [
          -117.238608317512,
          33.1895472612477
        ]
      }
    },
    {
      "type": "Feature",
      "properties": {
        "id": "4789",
        "name_formal": "Carlsbad City Council"
      },
      "geometry": {
        "type": "Point",
        "coordinates": [
          -117.334164711964,
          33.1618764447569
        ]
      }
    },
    {
      "type": "Feature",
      "properties": {
        "id": "3424",
        "name_formal": "Oceanside City Council"
      },
      "geometry": {
        "type": "Point",
        "coordinates": [
          -117.308427530389,
          33.2246873130364
        ]
      }
    },
    {
      "type": "Feature",
      "properties": {
        "id": "2954",
        "name_formal": "Greene County Commission"
      },
      "geometry": {
        "type": "Point",
        "coordinates": [
          -93.3420085321941,
          37.2580677423345
        ]
      }
    },
    {
      "type": "Feature",
      "properties": {
        "id": "4355",
        "name_formal": "Augusta Mayor"
      },
      "geometry": {
        "type": "Point",
        "coordinates": [
          -82.073584298638,
          33.3596305719343
        ]
      }
    },
    {
      "type": "Feature",
      "properties": {
        "id": "4773",
        "name_formal": "Downey City Council"
      },
      "geometry": {
        "type": "Point",
        "coordinates": [
          -118.131150115204,
          33.9378672510377
        ]
      }
    },
    {
      "type": "Feature",
      "properties": {
        "id": "2963",
        "name_formal": "Tallahassee Mayor"
      },
      "geometry": {
        "type": "Point",
        "coordinates": [
          -84.2526550080788,
          30.4549170125467
        ]
      }
    },
    {
      "type": "Feature",
      "properties": {
        "id": "3593",
        "name_formal": "Miami Gardens City Council"
      },
      "geometry": {
        "type": "Point",
        "coordinates": [
          -80.2617260203269,
          25.9299122867157
        ]
      }
    },
    {
      "type": "Feature",
      "properties": {
        "id": "4333",
        "name_formal": "San Bernardino City Council"
      },
      "geometry": {
        "type": "Point",
        "coordinates": [
          -117.345298961561,
          34.1485198110316
        ]
      }
    },
    {
      "type": "Feature",
      "properties": {
        "id": "4641",
        "name_formal": "King County Executive"
      },
      "geometry": {
        "type": "Point",
        "coordinates": [
          -121.835827656361,
          47.4908438945654
        ]
      }
    },
    {
      "type": "Feature",
      "properties": {
        "id": "4383",
        "name_formal": "Elizabeth City Council"
      },
      "geometry": {
        "type": "Point",
        "coordinates": [
          -74.1911103207241,
          40.6655326660384
        ]
      }
    },
    {
      "type": "Feature",
      "properties": {
        "id": "4669",
        "name_formal": "Sunnyvale City Council"
      },
      "geometry": {
        "type": "Point",
        "coordinates": [
          -122.02649704791,
          37.3856915017489
        ]
      }
    },
    {
      "type": "Feature",
      "properties": {
        "id": "4561",
        "name_formal": "Winston-Salem Mayor"
      },
      "geometry": {
        "type": "Point",
        "coordinates": [
          -80.2549303139558,
          36.1075484220241
        ]
      }
    },
    {
      "type": "Feature",
      "properties": {
        "id": "4774",
        "name_formal": "Tulsa City Council"
      },
      "geometry": {
        "type": "Point",
        "coordinates": [
          -95.9857353360218,
          36.195653676924
        ]
      }
    },
    {
      "type": "Feature",
      "properties": {
        "id": "4809",
        "name_formal": "Prince Georges County Council"
      },
      "geometry": {
        "type": "Point",
        "coordinates": [
          -76.8261895484346,
          38.7085708452585
        ]
      }
    },
    {
      "type": "Feature",
      "properties": {
        "id": "4140",
        "name_formal": "Santa Clarita City Council"
      },
      "geometry": {
        "type": "Point",
        "coordinates": [
          -118.503525720119,
          34.4119144842516
        ]
      }
    },
    {
      "type": "Feature",
      "properties": {
        "id": "87",
        "name_formal": "San Bernardino Mayor"
      },
      "geometry": {
        "type": "Point",
        "coordinates": [
          -117.295723574482,
          34.1393992976044
        ]
      }
    },
    {
      "type": "Feature",
      "properties": {
        "id": "4785",
        "name_formal": "Rochester Mayor"
      },
      "geometry": {
        "type": "Point",
        "coordinates": [
          -92.4777519573645,
          44.015178508765
        ]
      }
    },
    {
      "type": "Feature",
      "properties": {
        "id": "3814",
        "name_formal": "Little Rock Mayor"
      },
      "geometry": {
        "type": "Point",
        "coordinates": [
          -92.3573907354949,
          34.7258531792834
        ]
      }
    },
    {
      "type": "Feature",
      "properties": {
        "id": "4784",
        "name_formal": "Louisville Mayor"
      },
      "geometry": {
        "type": "Point",
        "coordinates": [
          -85.6590818613416,
          38.187156908969
        ]
      }
    },
    {
      "type": "Feature",
      "properties": {
        "id": "3057",
        "name_formal": "Cook County Board President"
      },
      "geometry": {
        "type": "Point",
        "coordinates": [
          -87.8167543131613,
          41.8400832845437
        ]
      }
    },
    {
      "type": "Feature",
      "properties": {
        "id": "3532",
        "name_formal": "Daly City Council"
      },
      "geometry": {
        "type": "Point",
        "coordinates": [
          -122.468460566252,
          37.6862644693961
        ]
      }
    },
    {
      "type": "Feature",
      "properties": {
        "id": "3894",
        "name_formal": "Vancouver City Council"
      },
      "geometry": {
        "type": "Point",
        "coordinates": [
          -122.597009437731,
          45.6351719510632
        ]
      }
    },
    {
      "type": "Feature",
      "properties": {
        "id": "3048",
        "name_formal": "Montgomery County Council"
      },
      "geometry": {
        "type": "Point",
        "coordinates": [
          -77.2980683566199,
          39.0734159666007
        ]
      }
    },
    {
      "type": "Feature",
      "properties": {
        "id": "4626",
        "name_formal": "Austin City Council"
      },
      "geometry": {
        "type": "Point",
        "coordinates": [
          -97.8089350250581,
          30.4313455284267
        ]
      }
    },
    {
      "type": "Feature",
      "properties": {
        "id": "2614",
        "name_formal": "Fresno City Council"
      },
      "geometry": {
        "type": "Point",
        "coordinates": [
          -119.826860012285,
          36.7208380061066
        ]
      }
    },
    {
      "type": "Feature",
      "properties": {
        "id": "4377",
        "name_formal": "Prince Georges County Executive"
      },
      "geometry": {
        "type": "Point",
        "coordinates": [
          -76.8448678742077,
          38.8327317355184
        ]
      }
    },
    {
      "type": "Feature",
      "properties": {
        "id": "4330",
        "name_formal": "Arlington County Board"
      },
      "geometry": {
        "type": "Point",
        "coordinates": [
          -77.101017493324,
          38.8785851111084
        ]
      }
    },
    {
      "type": "Feature",
      "properties": {
        "id": "4783",
        "name_formal": "Pompano Beach City Commission"
      },
      "geometry": {
        "type": "Point",
        "coordinates": [
          -80.1294117105694,
          26.2426042167752
        ]
      }
    },
    {
      "type": "Feature",
      "properties": {
        "id": "3361",
        "name_formal": "Wichita Falls City Council"
      },
      "geometry": {
        "type": "Point",
        "coordinates": [
          -98.5293211002638,
          33.9072683490251
        ]
      }
    },
    {
      "type": "Feature",
      "properties": {
        "id": "4648",
        "name_formal": "Phoenix Mayor"
      },
      "geometry": {
        "type": "Point",
        "coordinates": [
          -112.088536666523,
          33.5731887027101
        ]
      }
    },
    {
      "type": "Feature",
      "properties": {
        "id": "4228",
        "name_formal": "St. Charles County Council"
      },
      "geometry": {
        "type": "Point",
        "coordinates": [
          -90.8478824922876,
          38.6846609047716
        ]
      }
    },
    {
      "type": "Feature",
      "properties": {
        "id": "3492",
        "name_formal": "Antioch City Council"
      },
      "geometry": {
        "type": "Point",
        "coordinates": [
          -121.795726425099,
          37.9789012633387
        ]
      }
    },
    {
      "type": "Feature",
      "properties": {
        "id": "3338",
        "name_formal": "Hillsboro City Council"
      },
      "geometry": {
        "type": "Point",
        "coordinates": [
          -122.936375575727,
          45.5278556376241
        ]
      }
    },
    {
      "type": "Feature",
      "properties": {
        "id": "2629",
        "name_formal": "Mayor of Providence"
      },
      "geometry": {
        "type": "Point",
        "coordinates": [
          -71.4186026829979,
          41.8228848624573
        ]
      }
    },
    {
      "type": "Feature",
      "properties": {
        "id": "3032",
        "name_formal": "Tallahassee City Commission"
      },
      "geometry": {
        "type": "Point",
        "coordinates": [
          -84.2526550080788,
          30.4549170125467
        ]
      }
    },
    {
      "type": "Feature",
      "properties": {
        "id": "4546",
        "name_formal": "Rancho Cucamonga City Council"
      },
      "geometry": {
        "type": "Point",
        "coordinates": [
          -117.566237746534,
          34.1245794648201
        ]
      }
    },
    {
      "type": "Feature",
      "properties": {
        "id": "4764",
        "name_formal": "Hollywood City Commission"
      },
      "geometry": {
        "type": "Point",
        "coordinates": [
          -80.1677291785226,
          26.0295314032363
        ]
      }
    },
    {
      "type": "Feature",
      "properties": {
        "id": "2540",
        "name_formal": "Louisville Metro Council"
      },
      "geometry": {
        "type": "Point",
        "coordinates": [
          -85.8711352717671,
          38.0748498372651
        ]
      }
    },
    {
      "type": "Feature",
      "properties": {
        "id": "3041",
        "name_formal": "Richland County Council"
      },
      "geometry": {
        "type": "Point",
        "coordinates": [
          -81.2399656759398,
          34.1571700912123
        ]
      }
    },
    {
      "type": "Feature",
      "properties": {
        "id": "4662",
        "name_formal": "Los Angeles County Board of Supervisors"
      },
      "geometry": {
        "type": "Point",
        "coordinates": [
          -118.568250759599,
          34.131449434818
        ]
      }
    },
    {
      "type": "Feature",
      "properties": {
        "id": "530",
        "name_formal": "Oxnard Mayor"
      },
      "geometry": {
        "type": "Point",
        "coordinates": [
          -119.181851702541,
          34.1958228507065
        ]
      }
    },
    {
      "type": "Feature",
      "properties": {
        "id": "4016",
        "name_formal": "Victorville City Council"
      },
      "geometry": {
        "type": "Point",
        "coordinates": [
          -117.353716839168,
          34.527702395327
        ]
      }
    },
    {
      "type": "Feature",
      "properties": {
        "id": "4572",
        "name_formal": "Garden Grove City Council"
      },
      "geometry": {
        "type": "Point",
        "coordinates": [
          -117.960058024684,
          33.7787244455307
        ]
      }
    },
    {
      "type": "Feature",
      "properties": {
        "id": "2636",
        "name_formal": "San Francisco Board of Supervisors"
      },
      "geometry": {
        "type": "Point",
        "coordinates": [
          -122.483786580664,
          37.7755741746756
        ]
      }
    },
    {
      "type": "Feature",
      "properties": {
        "id": "4316",
        "name_formal": "Jurupa Valley City Council"
      },
      "geometry": {
        "type": "Point",
        "coordinates": [
          -117.470551906746,
          34.001022495355
        ]
      }
    },
    {
      "type": "Feature",
      "properties": {
        "id": "4042",
        "name_formal": "Montgomery City Council"
      },
      "geometry": {
        "type": "Point",
        "coordinates": [
          -86.3706720761578,
          32.3343994753851
        ]
      }
    },
    {
      "type": "Feature",
      "properties": {
        "id": "4767",
        "name_formal": "Anaheim Mayor"
      },
      "geometry": {
        "type": "Point",
        "coordinates": [
          -117.857613464626,
          33.8389076995022
        ]
      }
    },
    {
      "type": "Feature",
      "properties": {
        "id": "3825",
        "name_formal": "Moreno Valley City Council"
      },
      "geometry": {
        "type": "Point",
        "coordinates": [
          -117.204501890448,
          33.9244314090413
        ]
      }
    },
    {
      "type": "Feature",
      "properties": {
        "id": "3394",
        "name_formal": "Eugene City Council"
      },
      "geometry": {
        "type": "Point",
        "coordinates": [
          -123.180849989112,
          44.0830732567087
        ]
      }
    },
    {
      "type": "Feature",
      "properties": {
        "id": "4361",
        "name_formal": "Fort Myers City Council"
      },
      "geometry": {
        "type": "Point",
        "coordinates": [
          -81.8808004283362,
          26.6008639066633
        ]
      }
    },
    {
      "type": "Feature",
      "properties": {
        "id": "3423",
        "name_formal": "Concord City Council"
      },
      "geometry": {
        "type": "Point",
        "coordinates": [
          -122.047233251919,
          37.9671234022835
        ]
      }
    },
    {
      "type": "Feature",
      "properties": {
        "id": "4653",
        "name_formal": "Bakersfield City Council"
      },
      "geometry": {
        "type": "Point",
        "coordinates": [
          -119.159333804724,
          35.3834766021087
        ]
      }
    },
    {
      "type": "Feature",
      "properties": {
        "id": "4747",
        "name_formal": "Cole County Commission"
      },
      "geometry": {
        "type": "Point",
        "coordinates": [
          -92.2537891479742,
          38.4566993708306
        ]
      }
    },
    {
      "type": "Feature",
      "properties": {
        "id": "1523",
        "name_formal": "Oklahoma City City Council"
      },
      "geometry": {
        "type": "Point",
        "coordinates": [
          -97.7003375085064,
          35.408313587063
        ]
      }
    },
    {
      "type": "Feature",
      "properties": {
        "id": "4102",
        "name_formal": "Mayor of Clarksville"
      },
      "geometry": {
        "type": "Point",
        "coordinates": [
          -87.3425132877337,
          36.5695432298036
        ]
      }
    },
    {
      "type": "Feature",
      "properties": {
        "id": "4229",
        "name_formal": "Lake County Council"
      },
      "geometry": {
        "type": "Point",
        "coordinates": [
          -87.380189860199,
          41.3091589152712
        ]
      }
    },
    {
      "type": "Feature",
      "properties": {
        "id": "4523",
        "name_formal": "Surprise City Council"
      },
      "geometry": {
        "type": "Point",
        "coordinates": [
          -112.451939917278,
          33.6799533255119
        ]
      }
    },
    {
      "type": "Feature",
      "properties": {
        "id": "4015",
        "name_formal": "Temecula City Council"
      },
      "geometry": {
        "type": "Point",
        "coordinates": [
          -117.131455007441,
          33.492768022968
        ]
      }
    },
    {
      "type": "Feature",
      "properties": {
        "id": "4743",
        "name_formal": "Columbus Mayor"
      },
      "geometry": {
        "type": "Point",
        "coordinates": [
          -84.9109986582694,
          32.5288581066848
        ]
      }
    },
    {
      "type": "Feature",
      "properties": {
        "id": "3448",
        "name_formal": "Simi Valley City Council"
      },
      "geometry": {
        "type": "Point",
        "coordinates": [
          -118.748991988954,
          34.2662451404883
        ]
      }
    },
    {
      "type": "Feature",
      "properties": {
        "id": "3498",
        "name_formal": "Murrieta City Council"
      },
      "geometry": {
        "type": "Point",
        "coordinates": [
          -117.190924523921,
          33.5719548377135
        ]
      }
    },
    {
      "type": "Feature",
      "properties": {
        "id": "4272",
        "name_formal": "Hennepin County Board of Commissioners"
      },
      "geometry": {
        "type": "Point",
        "coordinates": [
          -93.5850850700833,
          45.0792907996784
        ]
      }
    },
    {
      "type": "Feature",
      "properties": {
        "id": "4618",
        "name_formal": "Paterson City Council"
      },
      "geometry": {
        "type": "Point",
        "coordinates": [
          -74.1858915598301,
          40.9115069994355
        ]
      }
    },
    {
      "type": "Feature",
      "properties": {
        "id": "4748",
        "name_formal": "Chandler City Council"
      },
      "geometry": {
        "type": "Point",
        "coordinates": [
          -111.851691848383,
          33.2826751914448
        ]
      }
    },
    {
      "type": "Feature",
      "properties": {
        "id": "3505",
        "name_formal": "Fairfield City Council"
      },
      "geometry": {
        "type": "Point",
        "coordinates": [
          -122.031845845548,
          38.2593155276665
        ]
      }
    },
    {
      "type": "Feature",
      "properties": {
        "id": "3346",
        "name_formal": "Rialto City Council"
      },
      "geometry": {
        "type": "Point",
        "coordinates": [
          -117.388510005119,
          34.112772051781
        ]
      }
    },
    {
      "type": "Feature",
      "properties": {
        "id": "2645",
        "name_formal": "Santa Ana City Council"
      },
      "geometry": {
        "type": "Point",
        "coordinates": [
          -117.908901457863,
          33.7164291268841
        ]
      }
    },
    {
      "type": "Feature",
      "properties": {
        "id": "4082",
        "name_formal": "Palm Bay City Council"
      },
      "geometry": {
        "type": "Point",
        "coordinates": [
          -80.6627728666747,
          27.9860696861678
        ]
      }
    },
    {
      "type": "Feature",
      "properties": {
        "id": "2638",
        "name_formal": "San Jose City Council"
      },
      "geometry": {
        "type": "Point",
        "coordinates": [
          -121.918330962569,
          37.419048384544
        ]
      }
    },
    {
      "type": "Feature",
      "properties": {
        "id": "4779",
        "name_formal": "Oregon Metro Council"
      },
      "geometry": {
        "type": "Point",
        "coordinates": [
          -122.912269371006,
          45.5254356760043
        ]
      }
    },
    {
      "type": "Feature",
      "properties": {
        "id": "4581",
        "name_formal": "Little Rock Board of Directors"
      },
      "geometry": {
        "type": "Point",
        "coordinates": [
          -92.4575329870697,
          34.7829361619264
        ]
      }
    },
    {
      "type": "Feature",
      "properties": {
        "id": "2668",
        "name_formal": "Honolulu City Council"
      },
      "geometry": {
        "type": "Point",
        "coordinates": [
          -158.597307472599,
          21.6500474441125
        ]
      }
    },
    {
      "type": "Feature",
      "properties": {
        "id": "2658",
        "name_formal": "Washington Mayor"
      },
      "geometry": {
        "type": "Point",
        "coordinates": [
          -77.0162435917199,
          38.9048587387892
        ]
      }
    },
    {
      "type": "Feature",
      "properties": {
        "id": "4800",
        "name_formal": "Visalia City Council"
      },
      "geometry": {
        "type": "Point",
        "coordinates": [
          -119.374458247896,
          36.3270509414782
        ]
      }
    },
    {
      "type": "Feature",
      "properties": {
        "id": "3391",
        "name_formal": "Huntsville City Council"
      },
      "geometry": {
        "type": "Point",
        "coordinates": [
          -86.7706108062404,
          34.6790609317859
        ]
      }
    },
    {
      "type": "Feature",
      "properties": {
        "id": "4384",
        "name_formal": "Escondido City Council"
      },
      "geometry": {
        "type": "Point",
        "coordinates": [
          -117.07212381714,
          33.1347771031545
        ]
      }
    },
    {
      "type": "Feature",
      "properties": {
        "id": "2610",
        "name_formal": "Austin Mayor"
      },
      "geometry": {
        "type": "Point",
        "coordinates": [
          -97.7528616656196,
          30.3010646976532
        ]
      }
    },
    {
      "type": "Feature",
      "properties": {
        "id": "4799",
        "name_formal": "Shreveport Mayor"
      },
      "geometry": {
        "type": "Point",
        "coordinates": [
          -93.7960983729852,
          32.4660443883798
        ]
      }
    },
    {
      "type": "Feature",
      "properties": {
        "id": "4087",
        "name_formal": "Inglewood City Council"
      },
      "geometry": {
        "type": "Point",
        "coordinates": [
          -118.344305782781,
          33.9564070257944
        ]
      }
    },
    {
      "type": "Feature",
      "properties": {
        "id": "4701",
        "name_formal": "Atlantic City Council"
      },
      "geometry": {
        "type": "Point",
        "coordinates": [
          -74.460419906486,
          39.3874037316754
        ]
      }
    },
    {
      "type": "Feature",
      "properties": {
        "id": "4817",
        "name_formal": "Midland City Council"
      },
      "geometry": {
        "type": "Point",
        "coordinates": [
          -102.180041839927,
          31.9856089542268
        ]
      }
    },
    {
      "type": "Feature",
      "properties": {
        "id": "4014",
        "name_formal": "Gilbert Town Council"
      },
      "geometry": {
        "type": "Point",
        "coordinates": [
          -111.745966910852,
          33.3079225667121
        ]
      }
    },
    {
      "type": "Feature",
      "properties": {
        "id": "4804",
        "name_formal": "Ventura City Council"
      },
      "geometry": {
        "type": "Point",
        "coordinates": [
          -119.231336465729,
          34.2740405043301
        ]
      }
    },
    {
      "type": "Feature",
      "properties": {
        "id": "2639",
        "name_formal": "San Jose Mayor"
      },
      "geometry": {
        "type": "Point",
        "coordinates": [
          -121.8106245655,
          37.281678604344
        ]
      }
    },
    {
      "type": "Feature",
      "properties": {
        "id": "2657",
        "name_formal": "Washington DC City Council"
      },
      "geometry": {
        "type": "Point",
        "coordinates": [
          -77.0162435917202,
          38.9048587387892
        ]
      }
    },
    {
      "type": "Feature",
      "properties": {
        "id": "4782",
        "name_formal": "City of Coral Springs Commission"
      },
      "geometry": {
        "type": "Point",
        "coordinates": [
          -80.2592232702004,
          26.2701756000305
        ]
      }
    },
    {
      "type": "Feature",
      "properties": {
        "id": "4786",
        "name_formal": "Wake County Board of Commissioners"
      },
      "geometry": {
        "type": "Point",
        "coordinates": [
          -78.7474563488863,
          35.63678875395
        ]
      }
    },
    {
      "type": "Feature",
      "properties": {
        "id": "3812",
        "name_formal": "El Monte City Council"
      },
      "geometry": {
        "type": "Point",
        "coordinates": [
          -118.029071970818,
          34.0739196632739
        ]
      }
    },
    {
      "type": "Feature",
      "properties": {
        "id": "3047",
        "name_formal": "Montgomery County Executive"
      },
      "geometry": {
        "type": "Point",
        "coordinates": [
          -77.2042415681657,
          39.1363782224114
        ]
      }
    },
    {
      "type": "Feature",
      "properties": {
        "id": "3014",
        "name_formal": "Mecklenburg Board of County Commissioners"
      },
      "geometry": {
        "type": "Point",
        "coordinates": [
          -80.7727177891746,
          35.1158418988087
        ]
      }
    },
    {
      "type": "Feature",
      "properties": {
        "id": "4500",
        "name_formal": "Berkeley City Council"
      },
      "geometry": {
        "type": "Point",
        "coordinates": [
          -122.297862002256,
          37.8742048765356
        ]
      }
    },
    {
      "type": "Feature",
      "properties": {
        "id": "4793",
        "name_formal": "Fremont City Council"
      },
      "geometry": {
        "type": "Point",
        "coordinates": [
          -121.99621763279,
          37.5246924781456
        ]
      }
    },
    {
      "type": "Feature",
      "properties": {
        "id": "4144",
        "name_formal": "Laredo Mayor"
      },
      "geometry": {
        "type": "Point",
        "coordinates": [
          -99.4876015734326,
          27.5581733645467
        ]
      }
    },
    {
      "type": "Feature",
      "properties": {
        "id": "4549",
        "name_formal": "Corpus Christi City Council"
      },
      "geometry": {
        "type": "Point",
        "coordinates": [
          -97.2856689209542,
          27.730777120553
        ]
      }
    },
    {
      "type": "Feature",
      "properties": {
        "id": "3806",
        "name_formal": "Ontario City Council"
      },
      "geometry": {
        "type": "Point",
        "coordinates": [
          -117.606420056535,
          34.0392720908089
        ]
      }
    },
    {
      "type": "Feature",
      "properties": {
        "id": "4139",
        "name_formal": "West Covina City Council"
      },
      "geometry": {
        "type": "Point",
        "coordinates": [
          -117.911282074437,
          34.0554415407658
        ]
      }
    },
    {
      "type": "Feature",
      "properties": {
        "id": "3861",
        "name_formal": "Salinas City Council"
      },
      "geometry": {
        "type": "Point",
        "coordinates": [
          -121.649854842195,
          36.6632617178537
        ]
      }
    },
    {
      "type": "Feature",
      "properties": {
        "id": "2934",
        "name_formal": "St. Louis County Council"
      },
      "geometry": {
        "type": "Point",
        "coordinates": [
          -90.6268439216449,
          38.5780380295648
        ]
      }
    },
    {
      "type": "Feature",
      "properties": {
        "id": "4737",
        "name_formal": "Clarksville City Council"
      },
      "geometry": {
        "type": "Point",
        "coordinates": [
          -87.4362284378002,
          36.6293822824822
        ]
      }
    },
    {
      "type": "Feature",
      "properties": {
        "id": "3107",
        "name_formal": "Huntington Beach City Council"
      },
      "geometry": {
        "type": "Point",
        "coordinates": [
          -118.007642652838,
          33.6908510618599
        ]
      }
    },
    {
      "type": "Feature",
      "properties": {
        "id": "4234",
        "name_formal": "Oregon Metro Council President"
      },
      "geometry": {
        "type": "Point",
        "coordinates": [
          -122.661313262733,
          45.4825598769163
        ]
      }
    },
    {
      "type": "Feature",
      "properties": {
        "id": "2622",
        "name_formal": "Mesa City Council"
      },
      "geometry": {
        "type": "Point",
        "coordinates": [
          -111.866441538123,
          33.3856774543964
        ]
      }
    },
    {
      "type": "Feature",
      "properties": {
        "id": "4142",
        "name_formal": "Laredo City Council"
      },
      "geometry": {
        "type": "Point",
        "coordinates": [
          -99.5440259403454,
          27.6355251763824
        ]
      }
    },
    {
      "type": "Feature",
      "properties": {
        "id": "4066",
        "name_formal": "Santa Maria City Council"
      },
      "geometry": {
        "type": "Point",
        "coordinates": [
          -120.443328027844,
          34.9334293200902
        ]
      }
    },
    {
      "type": "Feature",
      "properties": {
        "id": "4808",
        "name_formal": "Santa Rosa City Council"
      },
      "geometry": {
        "type": "Point",
        "coordinates": [
          -122.706000192596,
          38.4464429262076
        ]
      }
    },
    {
      "type": "Feature",
      "properties": {
        "id": "1376",
        "name_formal": "El Paso City Council"
      },
      "geometry": {
        "type": "Point",
        "coordinates": [
          -106.54172378866,
          31.8943330761998
        ]
      }
    },
    {
      "type": "Feature",
      "properties": {
        "id": "4254",
        "name_formal": "Virginia Beach City Council"
      },
      "geometry": {
        "type": "Point",
        "coordinates": [
          -76.0373373324656,
          36.7379087815037
        ]
      }
    },
    {
      "type": "Feature",
      "properties": {
        "id": "2948",
        "name_formal": "St. Charles County Executive"
      },
      "geometry": {
        "type": "Point",
        "coordinates": [
          -90.6749029961169,
          38.7819243728527
        ]
      }
    },
    {
      "type": "Feature",
      "properties": {
        "id": "4637",
        "name_formal": "Ann Arbor City Council"
      },
      "geometry": {
        "type": "Point",
        "coordinates": [
          -83.7310936648486,
          42.2767686457034
        ]
      }
    },
    {
      "type": "Feature",
      "properties": {
        "id": "4259",
        "name_formal": "San Diego City Council"
      },
      "geometry": {
        "type": "Point",
        "coordinates": [
          -117.235977593931,
          32.7121751796363
        ]
      }
    },
    {
      "type": "Feature",
      "properties": {
        "id": "3056",
        "name_formal": "Cook County Board of Commissioners"
      },
      "geometry": {
        "type": "Point",
        "coordinates": [
          -88.1279591992724,
          42.054322444516
        ]
      }
    },
    {
      "type": "Feature",
      "properties": {
        "id": "4778",
        "name_formal": "Augusta Commission"
      },
      "geometry": {
        "type": "Point",
        "coordinates": [
          -82.1011811486166,
          33.3148267260993
        ]
      }
    },
    {
      "type": "Feature",
      "properties": {
        "id": "4810",
        "name_formal": "Gresham City Council"
      },
      "geometry": {
        "type": "Point",
        "coordinates": [
          -122.441449439698,
          45.5023330580177
        ]
      }
    },
    {
      "type": "Feature",
      "properties": {
        "id": "3800",
        "name_formal": "Elk Grove City Council"
      },
      "geometry": {
        "type": "Point",
        "coordinates": [
          -121.384119140269,
          38.416000729051
        ]
      }
    },
    {
      "type": "Feature",
      "properties": {
        "id": "2626",
        "name_formal": "Oakland Mayor"
      },
      "geometry": {
        "type": "Point",
        "coordinates": [
          -122.224829312547,
          37.7699407417055
        ]
      }
    }
  ]
}
